{
	"type": "FeatureCollection",
	"features": [{
		"type": "Feature",
		"id": "01",
		"properties": {
			"name": "Los Angeles",
			"lat": "34.0522",
			"lng": "-118.2437",
      "key": "LA"
		}
	},
  {
    "type": "Feature",
    "id": "02",
    "properties": {
      "name": "Boston",
      "lat": "42.3601",
      "lng": "-71.0589",
      "key": "Boston"
    }
  },
  {
    "type": "Feature",
    "id": "03",
    "properties": {
      "name": "Chiacgo",
      "lat": "41.87811",
      "lng": "-87.6298",
      "key": "Chicago"
    }
  },
  {
    "type": "Feature",
    "id": "04",
    "properties": {
      "name": "New York",
      "lat": "40.7128",
      "lng": "-74.0059",
      "key": "NY"
    }
  },
  {
    "type": "Feature",
    "id": "05",
    "properties": {
      "name": "Seattle",
      "lat": "47.6062",
      "lng": "-122.3321",
      "key": "Seattle"
    }
  }]
}
